<peaks>
 <peak>
  <id>1</id>
  <name>Mt. Elbert</name>
  <range>Sawatch</range>
  <elevation>14433</elevation>
  <lat>39.118075</lat>
  <long>-106.445417</long>
 </peak>
 <peak>
  <id>2</id>
  <name>Mt. Massive</name>
  <range>Sawatch</range>
  <elevation>14421</elevation>
  <lat>39.187298</lat>
  <long>-106.475548</long>
 </peak>
 <peak>
  <id>3</id>
  <name>Mt. Harvard</name>
  <range>Sawatch</range>
  <elevation>14420</elevation>
  <lat>38.924328</lat>
  <long>-106.320618</long>
 </peak>
 <peak>
  <id>4</id>
  <name>Blanca Peak</name>
  <range>Sangre de Cristo</range>
  <elevation>14345</elevation>
  <lat>37.577473</lat>
  <long>-105.485443</long>
 </peak>
 <peak>
  <id>6</id>
  <name>La Plata Peak</name>
  <range>Sawatch</range>
  <elevation>14336</elevation>
  <lat>39.029251</lat>
  <long>-106.473145</long>
 </peak>
 <peak>
  <id>7</id>
  <name>Uncompahgre Peak</name>
  <range>San Juan</range>
  <elevation>14309</elevation>
  <lat>38.071507</lat>
  <long>-107.462166</long>
 </peak>
 <peak>
  <id>9</id>
  <name>Crestone Peak</name>
  <range>Sangre de Cristo</range>
  <elevation>14294</elevation>
  <lat>37.966972</lat>
  <long>-105.585304</long>
 </peak>
 <peak>
  <id>10</id>
  <name>Mt. Lincoln</name>
  <range>Mosquito</range>
  <elevation>14286</elevation>
  <lat>39.351391</lat>
  <long>-106.111404</long>
 </peak>
 <peak>
  <id>11</id>
  <name>Grays Peak</name>
  <range>Front</range>
  <elevation>14270</elevation>
  <lat>39.633820</lat>
  <long>-105.817520</long>
 </peak>
 <peak>
  <id>12</id>
  <name>Mt. Antero</name>
  <range>Sawatch</range>
  <elevation>14269</elevation>
  <lat>38.674088</lat>
  <long>-106.246201</long>
 </peak>
 <peak>
  <id>13</id>
  <name>Torreys Peak</name>
  <range>Front</range>
  <elevation>14267</elevation>
  <lat>39.642742</lat>
  <long>-105.821259</long>
 </peak>
 <peak>
  <id>15</id>
  <name>Castle Peak</name>
  <range>Elk</range>
  <elevation>14265</elevation>
  <lat>39.009647</lat>
  <long>-106.86144</long>
 </peak>
 <peak>
  <id>14</id>
  <name>Quandary Peak</name>
  <range>Tenmile</range>
  <elevation>14265</elevation>
  <lat>39.397236</lat>
  <long>-106.106430</long>
 </peak>
 <peak>
  <id>16</id>
  <name>Mt. Evans</name>
  <range>Front</range>
  <elevation>14264</elevation>
  <lat>39.588360</lat>
  <long>-105.643333</long>
 </peak>
 <peak>
  <id>20</id>
  <name>Longgs Peak</name>
  <range>Front</range>
  <elevation>14255</elevation>
  <lat>40.254902</lat>
  <long>-105.615738</long>
 </peak>
 <peak>
  <id>21</id>
  <name>Mt. Wilson</name>
  <range>San Juan</range>
  <elevation>14246</elevation>
  <lat>37.839310</lat>
  <long>-107.991570</long>
 </peak>
 <peak>
  <id>22</id>
  <name>Mt. Cameron</name>
  <range>Mosquito</range>
  <elevation>14238</elevation>
  <lat>39.346844</lat>
  <long>-106.118576</long>
 </peak>
 <peak>
  <id>23</id>
  <name>Mt. Shavano</name>
  <range>Sawatch</range>
  <elevation>14229</elevation>
  <lat>38.619083</lat>
  <long>-106.239296</long>
 </peak>
 <peak>
  <id>26</id>
  <name>Mt. Belford</name>
  <range>Sawatch</range>
  <elevation>14197</elevation>
  <lat>38.960575</lat>
  <long>-106.360832</long>
 </peak>
 <peak>
  <id>25</id>
  <name>Crestone Needle</name>
  <range>Sangre de Cristo</range>
  <elevation>14197</elevation>
  <lat>37.964737</lat>
  <long>-105.576683</long>
 </peak>
 <peak>
  <id>24</id>
  <name>Mt. Princeton</name>
  <range>Sawatch</range>
  <elevation>14197</elevation>
  <lat>38.749062</lat>
  <long>-106.242432</long>
 </peak>
 <peak>
  <id>27</id>
  <name>Mt. Yale</name>
  <range>Sawatch</range>
  <elevation>14196</elevation>
  <lat>38.844051</lat>
  <long>-106.313965</long>
 </peak>
 <peak>
  <id>29</id>
  <name>Mt. Bross</name>
  <range>Mosquito</range>
  <elevation>14172</elevation>
  <lat>39.335060</lat>
  <long>-106.107376</long>
 </peak>
 <peak>
  <id>30</id>
  <name>Kit Carson Peak</name>
  <range>Sangre de Cristo</range>
  <elevation>14165</elevation>
  <lat>37.979759</lat>
  <long>-105.602562</long>
 </peak>
 <peak>
  <id>31</id>
  <name>El Diente Peak</name>
  <range>San Juan</range>
  <elevation>14159</elevation>
  <lat>37.839275</lat>
  <long>-108.005219</long>
 </peak>
 <peak>
  <id>32</id>
  <name>Maroon Peak</name>
  <range>Elk</range>
  <elevation>14156</elevation>
  <lat>39.070713</lat>
  <long>-106.989113</long>
 </peak>
 <peak>
  <id>33</id>
  <name>Tabeguache Peak</name>
  <range>Sawatch</range>
  <elevation>14155</elevation>
  <lat>38.625622</lat>
  <long>-106.250710</long>
 </peak>
 <peak>
  <id>34</id>
  <name>Mt. Oxford</name>
  <range>Sawatch</range>
  <elevation>14153</elevation>
  <lat>38.964680</lat>
  <long>-106.338432</long>
 </peak>
 <peak>
  <id>35</id>
  <name>Mt. Sneffels</name>
  <range>San Juan</range>
  <elevation>14150</elevation>
  <lat>38.003605</lat>
  <long>-107.792229</long>
 </peak>
 <peak>
  <id>36</id>
  <name>Mt. Democrat</name>
  <range>Mosquito</range>
  <elevation>14148</elevation>
  <lat>39.339542</lat>
  <long>-106.139946</long>
 </peak>
 <peak>
  <id>39</id>
  <name>Capitol Peak</name>
  <range>Elk</range>
  <elevation>14130</elevation>
  <lat>39.150166</lat>
  <long>-107.083221</long>
 </peak>
 <peak>
  <id>40</id>
  <name>Pikes Peak</name>
  <range>Front</range>
  <elevation>14110</elevation>
  <lat>38.840542</lat>
  <long>-105.044357</long>
 </peak>
 <peak>
  <id>43</id>
  <name>Snowmass Mountain</name>
  <range>Elk</range>
  <elevation>14092</elevation>
  <lat>39.118809</lat>
  <long>-107.066528</long>
 </peak>
 <peak>
  <id>44</id>
  <name>Mt. Eolus</name>
  <range>San Juan</range>
  <elevation>14083</elevation>
  <lat>37.621948</lat>
  <long>-107.622498</long>
 </peak>
 <peak>
  <id>45</id>
  <name>Windom Peak</name>
  <range>San Juan</range>
  <elevation>14082</elevation>
  <lat>37.621235</lat>
  <long>-107.591774</long>
 </peak>
 <peak>
  <id>46</id>
  <name>Challenger Point</name>
  <range>Sangre de Cristo</range>
  <elevation>14081</elevation>
  <lat>37.980267</lat>
  <long>-105.606766</long>
 </peak>
 <peak>
  <id>47</id>
  <name>Mt. Columbia</name>
  <range>Sawatch</range>
  <elevation>14073</elevation>
  <lat>38.903957</lat>
  <long>-106.297485</long>
 </peak>
 <peak>
  <id>48</id>
  <name>Missouri Mountain</name>
  <range>Sawatch</range>
  <elevation>14067</elevation>
  <lat>38.947559</lat>
  <long>-106.378471</long>
 </peak>
 <peak>
  <id>49</id>
  <name>Humboldt Peak</name>
  <range>Sangre de Cristo</range>
  <elevation>14064</elevation>
  <lat>37.976105</lat>
  <long>-105.555351</long>
 </peak>
 <peak>
  <id>50</id>
  <name>Mt. Bierstadt</name>
  <range>Front</range>
  <elevation>14060</elevation>
  <lat>39.582638</lat>
  <long>-105.668610</long>
 </peak>
 <peak>
  <id>51</id>
  <name>Conundrum Peak</name>
  <range>Elk</range>
  <elevation>14060</elevation>
  <lat>39.01563</lat>
  <long>-106.86294</long>
 </peak>
 <peak>
  <id>53</id>
  <name>Sunlight Peak</name>
  <range>San Juan</range>
  <elevation>14059</elevation>
  <lat>37.627285</lat>
  <long>-107.595894</long>
 </peak>
 <peak>
  <id>54</id>
  <name>Handies Peak</name>
  <range>San Juan</range>
  <elevation>14048</elevation>
  <lat>37.913021</lat>
  <long>-107.504478</long>
 </peak>
 <peak>
  <id>55</id>
  <name>Culebra Peak</name>
  <range>Sangre de Cristo</range>
  <elevation>14047</elevation>
  <lat>37.122173</lat>
  <long>-105.185593</long>
 </peak>
 <peak>
  <id>56</id>
  <name>Ellingwood Point</name>
  <range>Sangre de Cristo</range>
  <elevation>14042</elevation>
  <lat>37.582508</lat>
  <long>-105.492569</long>
 </peak>
 <peak>
  <id>57</id>
  <name>Mt. Lindsey</name>
  <range>Sangre de Cristo</range>
  <elevation>14042</elevation>
  <lat>37.583801</lat>
  <long>-105.444763</long>
 </peak>
 <peak>
  <id>58</id>
  <name>North Eolus</name>
  <range>San Juan</range>
  <elevation>14039</elevation>
  <lat>37.625416</lat>
  <long>-107.620995</long>
 </peak>
 <peak>
  <id>59</id>
  <name>Little Bear Peak</name>
  <range>Sangre de Cristo</range>
  <elevation>14037</elevation>
  <lat>37.566624</lat>
  <long>-105.497162</long>
 </peak>
 <peak>
  <id>60</id>
  <name>Mt. Sherman</name>
  <range>Mosquito</range>
  <elevation>14036</elevation>
  <lat>39.225006</lat>
  <long>-106.169945</long>
 </peak>
 <peak>
  <id>61</id>
  <name>Redcloud Peak</name>
  <range>San Juan</range>
  <elevation>14034</elevation>
  <lat>37.940880</lat>
  <long>-107.421654</long>
 </peak>
 <peak>
  <id>66</id>
  <name>Pyramid Peak</name>
  <range>Elk</range>
  <elevation>14018</elevation>
  <lat>39.071545</lat>
  <long>-106.950188</long>
 </peak>
 <peak>
  <id>67</id>
  <name>Wilson Peak</name>
  <range>San Juan</range>
  <elevation>14017</elevation>
  <lat>37.859913</lat>
  <long>-107.984795</long>
 </peak>
 <peak>
  <id>68</id>
  <name>Wetterhorn Peak</name>
  <range>San Juan</range>
  <elevation>14015</elevation>
  <lat>38.060593</lat>
  <long>-107.510834</long>
 </peak>
 <peak>
  <id>69</id>
  <name>San Luis Peak</name>
  <range>San Juan</range>
  <elevation>14014</elevation>
  <lat>37.986897</lat>
  <long>-106.931389</long>
 </peak>
 <peak>
  <id>70</id>
  <name>North Maroon Peak</name>
  <range>Elk</range>
  <elevation>14014</elevation>
  <lat>39.076077</lat>
  <long>-106.987267</long>
 </peak>
 <peak>
  <id>71</id>
  <name>Mt. of the Holy Cross</name>
  <range>Sawatch</range>
  <elevation>14005</elevation>
  <lat>39.466713</lat>
  <long>-106.481766</long>
 </peak>
 <peak>
  <id>72</id>
  <name>Huron Peak</name>
  <range>Sawatch</range>
  <elevation>14003</elevation>
  <lat>38.945423</lat>
  <long>-106.438126</long>
 </peak>
 <peak>
  <id>73</id>
  <name>Sunshine Peak</name>
  <range>San Juan</range>
  <elevation>14001</elevation>
  <lat>37.922604</lat>
  <long>-107.425606</long>
 </peak>
</peaks>>